{"business_id": "Idx8xKpOpz7llQS_5qSBbA", "full_address": "478 5th Ave\nTroy, NY 12182", "schools": ["Rensselaer Polytechnic Institute"], "open": true, "categories": ["Food", "Specialty Food", "Meat Shops", "Barbeque", "Restaurants"], "photo_url": "http://s3-media4.ak.yelpcdn.com/bphoto/H70W-Mh5VcEPzQ1J7Qnpqw/ms.jpg", "city": "Troy", "review_count": 10, "name": "Mustang BBQ", "neighborhoods": [], "url": "http://www.yelp.com/biz/mustang-bbq-troy", "longitude": -73.674983999999995, "state": "NY", "stars": 3.5, "latitude": 42.770282999999999, "type": "business"}
{"business_id": "yOZy7PXpUG156HUZJ_4hcQ", "full_address": "588 New Loudon Rd Ste 6\nLatham, NY 12110", "schools": ["Rensselaer Polytechnic Institute"], "open": true, "categories": ["Arts & Entertainment", "Art Galleries", "Shopping"], "photo_url": "http://s3-media1.ak.yelpcdn.com/assets/2/www/img/924a6444ca6c/gfx/blank_biz_medium.gif", "city": "Latham", "review_count": 2, "name": "Morningside Gallery", "neighborhoods": [], "url": "http://www.yelp.com/biz/morningside-gallery-latham", "longitude": -73.760287099999999, "state": "NY", "stars": 5.0, "latitude": 42.726675499999999, "type": "business"}
{"business_id": "juuN71EcoKNZ-tFSzYE9mQ", "full_address": "2600 7th Ave\nWatervliet, NY 12189", "schools": ["Rensselaer Polytechnic Institute"], "open": true, "categories": ["Local Services"], "photo_url": "http://s3-media3.ak.yelpcdn.com/bphoto/bu0VJDn0K0WuYKf-UcoR7g/ms.jpg", "city": "Watervliet", "review_count": 2, "name": "SKS Bottle & Packaging Inc", "neighborhoods": [], "url": "http://www.yelp.com/biz/sks-bottle-and-packaging-inc-watervliet", "longitude": -73.705748900000003, "state": "NY", "stars": 1.0, "latitude": 42.7372558, "type": "business"}
{"business_id": "18PtRv3gFL4fCZ1Xm9P03Q", "full_address": "Hudson Valley Plz\nTroy, NY 12180", "schools": ["Rensselaer Polytechnic Institute"], "open": true, "categories": ["Chinese", "Restaurants"], "photo_url": "http://s3-media1.ak.yelpcdn.com/bphoto/iqJGiJ-H_m26EhjYBaD3pw/ms.jpg", "city": "Troy", "review_count": 3, "name": "China Wok", "neighborhoods": [], "url": "http://www.yelp.com/biz/china-wok-troy", "longitude": -73.690479999999994, "state": "NY", "stars": 1.5, "latitude": 42.697209999999998, "type": "business"}
{"business_id": "VIeqbFdw0gm_hwoL_2NXTg", "full_address": "929 19th St\nWatervliet, NY 12189", "schools": ["Rensselaer Polytechnic Institute"], "open": true, "categories": ["Diners", "Restaurants"], "photo_url": "http://s3-media1.ak.yelpcdn.com/bphoto/howFr5IxvgdQ-VZ_4BD56Q/ms.jpg", "city": "Watervliet", "review_count": 18, "name": "Bob's Diner", "neighborhoods": [], "url": "http://www.yelp.com/biz/bobs-diner-watervliet", "longitude": -73.709970999999996, "state": "NY", "stars": 3.0, "latitude": 42.7326397, "type": "business"}
{"business_id": "N9xkYnKYLIEu8jj2x9CA9w", "full_address": "161 Troy Schenectady Rd\nWatervliet, NY 12189", "schools": ["Rensselaer Polytechnic Institute"], "open": true, "categories": ["Food", "Bakeries"], "photo_url": "http://s3-media1.ak.yelpcdn.com/bphoto/w152sy6bSRmnO04KS9BXZg/ms.jpg", "city": "Watervliet", "review_count": 2, "name": "Wonder Hostess Thrift Shop", "neighborhoods": [], "url": "http://www.yelp.com/biz/wonder-hostess-thrift-shop-watervliet", "longitude": -73.729790699999995, "state": "NY", "stars": 4.5, "latitude": 42.738137500000001, "type": "business"}
{"business_id": "RmrYUMJvBzSAtjtMYH1Glw", "full_address": "49 3rd St\nTroy, NY 12180", "schools": ["Rensselaer Polytechnic Institute"], "open": true, "categories": ["Breakfast & Brunch", "Sandwiches", "Restaurants"], "photo_url": "http://s3-media4.ak.yelpcdn.com/bphoto/qYN7H0H-6oo6TNcmjQhnIA/ms.jpg", "city": "Troy", "review_count": 3, "name": "Selena's Cafe", "neighborhoods": [], "url": "http://www.yelp.com/biz/selenas-cafe-troy", "longitude": -73.6907669, "state": "NY", "stars": 3.5, "latitude": 42.730606999999999, "type": "business"}
{"business_id": "r0udpvGmvrIrRhVyluz3lw", "full_address": "831 Hoosick Rd\nTroy, NY 12180", "schools": ["Rensselaer Polytechnic Institute"], "open": true, "categories": ["Shopping", "Home & Garden", "Furniture Stores"], "photo_url": "http://s3-media1.ak.yelpcdn.com/assets/2/www/img/924a6444ca6c/gfx/blank_biz_medium.gif", "city": "Troy", "review_count": 2, "name": "Feathers Furniture Co", "neighborhoods": [], "url": "http://www.yelp.com/biz/feathers-furniture-co-troy", "longitude": -73.6324951, "state": "NY", "stars": 2.5, "latitude": 42.750381500000003, "type": "business"}
{"business_id": "oYg8-g5mD1HPJSfj5U69BQ", "full_address": "638 Columbia Ext.\nLatham, NY 12110", "schools": ["Rensselaer Polytechnic Institute"], "open": true, "categories": ["Food", "Bakeries", "Bagels"], "photo_url": "http://s3-media4.ak.yelpcdn.com/bphoto/TEzxCIPxAdHd6Ow-w9dKfA/ms.jpg", "city": "Latham", "review_count": 4, "name": "Golden Krust Bagels", "neighborhoods": [], "url": "http://www.yelp.com/biz/golden-krust-bagels-latham", "longitude": -73.752821999999995, "state": "NY", "stars": 4.5, "latitude": 42.762169, "type": "business"}
{"business_id": "j_fj6YY5hBe5YW1ucRQrsw", "full_address": "200 Troy Schenectady Rd\nLatham, NY 12110", "schools": ["Rensselaer Polytechnic Institute"], "open": true, "categories": ["Books, Mags, Music and Video", "Bookstores", "Shopping", "Comic Books"], "photo_url": "http://s3-media1.ak.yelpcdn.com/assets/2/www/img/924a6444ca6c/gfx/blank_biz_medium.gif", "city": "Latham", "review_count": 5, "name": "Book Barn the", "neighborhoods": [], "url": "http://www.yelp.com/biz/book-barn-the-latham", "longitude": -73.730882199999996, "state": "NY", "stars": 4.0, "latitude": 42.738259900000003, "type": "business"}
{"business_id": "DfOtgLP1a-a8lQlIvYksDQ", "full_address": "14 Spring Ave\nTroy, NY 12180", "schools": ["Rensselaer Polytechnic Institute"], "open": true, "categories": ["Pizza", "Restaurants"], "photo_url": "http://s3-media1.ak.yelpcdn.com/bphoto/qXUGK0wGiFZz9Zr46-yTog/ms.jpg", "city": "Troy", "review_count": 4, "name": "Dante's Pizzeria", "neighborhoods": [], "url": "http://www.yelp.com/biz/dantes-pizzeria-troy", "longitude": -73.682372200000003, "state": "NY", "stars": 4.0, "latitude": 42.718376399999997, "type": "business"}
{"business_id": "y0J2PrJh2LIDHHtT6DzkJw", "full_address": "108 14th St\nTroy, NY 12180", "schools": ["Rensselaer Polytechnic Institute"], "open": true, "categories": ["Pizza", "Restaurants"], "photo_url": "http://s3-media2.ak.yelpcdn.com/bphoto/nkKAQv8tMIW9moySvjssxA/ms.jpg", "city": "Troy", "review_count": 11, "name": "Big Apple Pizzeria", "neighborhoods": [], "url": "http://www.yelp.com/biz/big-apple-pizzeria-troy", "longitude": -73.678979999999996, "state": "NY", "stars": 2.5, "latitude": 42.726875999999997, "type": "business"}
{"business_id": "U_wLGkq86qyd8yzpKyFswg", "full_address": "1300 15th St\nTroy, NY 12180", "schools": ["Rensselaer Polytechnic Institute"], "open": true, "categories": ["German", "Ethnic Food", "Specialty Food", "Food", "Polish", "Restaurants"], "photo_url": "http://s3-media4.ak.yelpcdn.com/bphoto/cPbAJzKVz4KiJQxv29PKBA/ms.jpg", "city": "Troy", "review_count": 29, "name": "Muza", "neighborhoods": [], "url": "http://www.yelp.com/biz/muza-troy", "longitude": -73.679113400000006, "state": "NY", "stars": 4.0, "latitude": 42.723542700000003, "type": "business"}
{"business_id": "VcuMtj_cGyjaa_O1E2xMIA", "full_address": "608 New Loudon Rd\nLatham, NY 12110", "schools": ["Rensselaer Polytechnic Institute"], "open": true, "categories": ["Active Life", "Amusement Parks"], "photo_url": "http://s3-media1.ak.yelpcdn.com/bphoto/tarVowHF8rNShnQMKQPtMg/ms.jpg", "city": "Latham", "review_count": 11, "name": "Hoffman's Playland", "neighborhoods": [], "url": "http://www.yelp.com/biz/hoffmans-playland-latham", "longitude": -73.762136999999996, "state": "NY", "stars": 3.5, "latitude": 42.729042999999997, "type": "business"}
{"business_id": "RrI8TixksrEf1MhHipvZlQ", "full_address": "455 Broadway\nTroy, NY 12180", "schools": ["Rensselaer Polytechnic Institute"], "open": true, "categories": ["Massage", "Beauty and Spas"], "photo_url": "http://s3-media1.ak.yelpcdn.com/assets/2/www/img/924a6444ca6c/gfx/blank_biz_medium.gif", "city": "Troy", "review_count": 3, "name": "The White Sands Massage Llc", "neighborhoods": [], "url": "http://www.yelp.com/biz/the-white-sands-massage-llc-troy", "longitude": -73.68835, "state": "NY", "stars": 4.5, "latitude": 42.730936999999997, "type": "business"}
{"business_id": "KBC-CCXC5oFJLaDfPlXNUA", "full_address": "254 Broadway\nTroy, NY 12180", "schools": ["Rensselaer Polytechnic Institute"], "open": false, "categories": ["Food", "Beer, Wine & Spirits"], "photo_url": "http://s3-media4.ak.yelpcdn.com/bphoto/bJ99I-XzkyIF3O-U0lYfNA/ms.jpg", "city": "Troy", "review_count": 5, "name": "The Judge's Inn", "neighborhoods": [], "url": "http://www.yelp.com/biz/the-judges-inn-troy", "longitude": -73.690742, "state": "NY", "stars": 2.0, "latitude": 42.7313787, "type": "business"}
{"business_id": "ylVyaq6lEkOvI1bpP6uP1Q", "full_address": "723 New Loudon Rd\nLatham, NY 12110", "schools": ["Rensselaer Polytechnic Institute"], "open": true, "categories": ["Auto Repair", "Automotive", "Auto Parts & Supplies", "Car Dealers"], "photo_url": "http://s3-media1.ak.yelpcdn.com/bphoto/1ylO5Jzcpl1BTxF_LrR1UQ/ms.jpg", "city": "Latham", "review_count": 2, "name": "Langan Audi East", "neighborhoods": [], "url": "http://www.yelp.com/biz/langan-audi-east-latham", "longitude": -73.761218999999997, "state": "NY", "stars": 3.0, "latitude": 42.739904000000003, "type": "business"}
{"business_id": "c3AMAv08iFfnRSGmqFy4rQ", "full_address": "579 Troy Schenectady Rd Ste 219\nLatham, NY 12110", "schools": ["Rensselaer Polytechnic Institute"], "open": true, "categories": ["Sandwiches", "Restaurants"], "photo_url": "http://s3-media3.ak.yelpcdn.com/bphoto/grAictGbKSkwWOuZXYkREw/ms.jpg", "city": "Latham", "review_count": 3, "name": "Mr. Subb", "neighborhoods": [], "url": "http://www.yelp.com/biz/mr-subb-latham-2", "longitude": -73.766705000000002, "state": "NY", "stars": 3.5, "latitude": 42.752153, "type": "business"}
{"business_id": "_1ocatc2jqyIgizF7FWr0Q", "full_address": "470 N Greenbush Rd\nRensselaer, NY 12144", "schools": ["Rensselaer Polytechnic Institute"], "open": true, "categories": ["Food", "Beer, Wine & Spirits"], "photo_url": "http://s3-media1.ak.yelpcdn.com/assets/2/www/img/924a6444ca6c/gfx/blank_biz_medium.gif", "city": "Rensselaer", "review_count": 4, "name": "Hennessy Homebrew Emporium", "neighborhoods": [], "url": "http://www.yelp.com/biz/hennessy-homebrew-emporium-rensselaer", "longitude": -73.692613699999995, "state": "NY", "stars": 4.0, "latitude": 42.659840699999997, "type": "business"}
{"business_id": "-4ArSF1om4JXNBA8wAnQyA", "full_address": "571 Watervliet Shaker Rd\nLatham, NY 12110", "schools": ["Rensselaer Polytechnic Institute"], "open": true, "categories": ["Afghan", "Indian", "Pakistani", "Restaurants"], "photo_url": "http://s3-media4.ak.yelpcdn.com/bphoto/pk_A1shI-GwY0k0RMnwJWg/ms.jpg", "city": "Latham", "review_count": 3, "name": "Bombay Grill", "neighborhoods": [], "url": "http://www.yelp.com/biz/bombay-grill-latham", "longitude": -73.762080499999996, "state": "NY", "stars": 3.0, "latitude": 42.736835399999997, "type": "business"}
{"business_id": "sCPH5jyB8vYjA9tyaUEsGg", "full_address": "50 2nd St\nTroy, NY 12180", "schools": ["Rensselaer Polytechnic Institute"], "open": true, "categories": ["Indian", "Restaurants"], "photo_url": "http://s3-media1.ak.yelpcdn.com/bphoto/XLzcPTzIokTyl8QLsn73Fg/ms.jpg", "city": "Troy", "review_count": 11, "name": "Thunder Mountain Curry", "neighborhoods": [], "url": "http://www.yelp.com/biz/thunder-mountain-curry-troy", "longitude": -73.691592999999997, "state": "NY", "stars": 4.0, "latitude": 42.729776000000001, "type": "business"}
{"business_id": "P55ryS7ZZq2hQfIOTDb8ww", "full_address": "595 New Loudon Rd\nNewton PLaza\nLatham, NY 12110", "schools": ["Rensselaer Polytechnic Institute"], "open": true, "categories": ["Active Life", "Yoga", "Fitness & Instruction"], "photo_url": "http://s3-media1.ak.yelpcdn.com/assets/2/www/img/924a6444ca6c/gfx/blank_biz_medium.gif", "city": "Latham", "review_count": 3, "name": "E Studio", "neighborhoods": [], "url": "http://www.yelp.com/biz/e-studio-latham", "longitude": -73.760096000000004, "state": "NY", "stars": 3.5, "latitude": 42.748845000000003, "type": "business"}
{"business_id": "8usIRMyUl-Zc279N70kWig", "full_address": "303 Troy Schenectady Rd\nLatham, NY 12110", "schools": ["Rensselaer Polytechnic Institute"], "open": true, "categories": ["Local Services", "Sewing & Alterations", "Dry Cleaning & Laundry", "Shopping", "Jewelry"], "photo_url": "http://s3-media1.ak.yelpcdn.com/assets/2/www/img/924a6444ca6c/gfx/blank_biz_medium.gif", "city": "Latham", "review_count": 2, "name": "Elegant Fashion", "neighborhoods": [], "url": "http://www.yelp.com/biz/elegant-fashion-latham", "longitude": -73.744201099999998, "state": "NY", "stars": 3.0, "latitude": 42.742873199999998, "type": "business"}
{"business_id": "UZFBK4pU-VcEt1N4IoYCRA", "full_address": "579 Troy Schenectady Rd Ste 202\nLatham, NY 12110", "schools": ["Rensselaer Polytechnic Institute"], "open": true, "categories": ["Food", "Grocery"], "photo_url": "http://s3-media3.ak.yelpcdn.com/bphoto/bHmtDhvCazeDwCqxvDe_XA/ms.jpg", "city": "Latham", "review_count": 6, "name": "Hannaford Supermarkets", "neighborhoods": [], "url": "http://www.yelp.com/biz/hannaford-supermarkets-latham", "longitude": -73.766428000000005, "state": "NY", "stars": 4.5, "latitude": 42.751773499999999, "type": "business"}
{"business_id": "Qc3exGUfsxCWoPdKoO7UjQ", "full_address": "594 New Loudon Rd\nLatham, NY 12110", "schools": ["Rensselaer Polytechnic Institute"], "open": true, "categories": ["Newspapers & Magazines", "Books, Mags, Music and Video", "Shopping"], "photo_url": "http://s3-media4.ak.yelpcdn.com/bphoto/FtAcVHFbrVM32W7HGYZsUQ/ms.jpg", "city": "Latham", "review_count": 2, "name": "Coulson's News & Variety", "neighborhoods": [], "url": "http://www.yelp.com/biz/coulsons-news-and-variety-latham", "longitude": -73.760662078857393, "state": "NY", "stars": 4.0, "latitude": 42.725869733578698, "type": "business"}
{"business_id": "lujEt948SWY9tHACaPHFUQ", "full_address": "199 4th St\nTroy, NY 12180", "schools": ["Rensselaer Polytechnic Institute"], "open": true, "categories": ["Local Services", "Sewing & Alterations"], "photo_url": "http://s3-media4.ak.yelpcdn.com/bphoto/2_f9gTfeH4QbtJC7-5lTiw/ms.jpg", "city": "Troy", "review_count": 2, "name": "Allblues Sewing & Alterations", "neighborhoods": [], "url": "http://www.yelp.com/biz/allblues-sewing-and-alterations-troy-2", "longitude": -73.690285500000002, "state": "NY", "stars": 5.0, "latitude": 42.725843099999999, "type": "business"}
{"business_id": "yEq4WDMn6dLyGTbLkw2HZA", "full_address": "53 Main Ave\nWynantskill, NY 12198", "schools": ["Rensselaer Polytechnic Institute"], "open": true, "categories": ["Nail Salons", "Beauty and Spas"], "photo_url": "http://s3-media1.ak.yelpcdn.com/assets/2/www/img/924a6444ca6c/gfx/blank_biz_medium.gif", "city": "Wynantskill", "review_count": 2, "name": "Princess Nails", "neighborhoods": [], "url": "http://www.yelp.com/biz/princess-nails-wynantskill", "longitude": -73.647298000000006, "state": "NY", "stars": 2.0, "latitude": 42.697547999999998, "type": "business"}
{"business_id": "KjMloHECqYkQEJslek8v_A", "full_address": "720 Hoosick Road\nTroy, NY 12180", "schools": ["Rensselaer Polytechnic Institute"], "open": true, "categories": ["Pizza", "Restaurants"], "photo_url": "http://s3-media2.ak.yelpcdn.com/bphoto/ckgFcxH8Oiozt5E_kG5laA/ms.jpg", "city": "Troy", "review_count": 4, "name": "Papa John's Pizza", "neighborhoods": [], "url": "http://www.yelp.com/biz/papa-johns-pizza-troy-4", "longitude": -73.644703000000007, "state": "NY", "stars": 3.5, "latitude": 42.743642000000001, "type": "business"}
{"business_id": "bjv2bf_kX1cNl-2OPm4Jig", "full_address": "618 Saratoga St\nCohoes, NY 12047", "schools": ["Rensselaer Polytechnic Institute"], "open": true, "categories": ["Restaurants", "Hot Dogs"], "photo_url": "http://s3-media1.ak.yelpcdn.com/bphoto/UDwLDMy1zLpXtHcfhNIwwQ/ms.jpg", "city": "Cohoes", "review_count": 8, "name": "Hot Dog Charlie's", "neighborhoods": [], "url": "http://www.yelp.com/biz/hot-dog-charlies-cohoes", "longitude": -73.700778999999997, "state": "NY", "stars": 4.0, "latitude": 42.752192100000002, "type": "business"}
{"business_id": "z6Ut4WINzV8aK83c3lZPtw", "full_address": "579 Troy Schenectady Road\nLatham, NY 12110", "schools": ["Rensselaer Polytechnic Institute"], "open": true, "categories": ["Nail Salons", "Beauty and Spas"], "photo_url": "http://s3-media2.ak.yelpcdn.com/bphoto/yQFcwatdudwDNIhzZNQ3dQ/ms.jpg", "city": "Latham", "review_count": 5, "name": "City Nail & Spa", "neighborhoods": [], "url": "http://www.yelp.com/biz/city-nail-and-spa-latham", "longitude": -73.761671000000007, "state": "NY", "stars": 3.5, "latitude": 42.757142999999999, "type": "business"}
{"business_id": "_M7mLNPK6xS805OYFgfaEQ", "full_address": "326 5th Ave\nTroy, NY 12182", "schools": ["Rensselaer Polytechnic Institute"], "open": true, "categories": ["Active Life", "Bowling"], "photo_url": "http://s3-media3.ak.yelpcdn.com/bphoto/IJP7cytY-f_AkyeXydhu4A/ms.jpg", "city": "Troy", "review_count": 2, "name": "Alpha Lanes", "neighborhoods": [], "url": "http://www.yelp.com/biz/alpha-lanes-troy", "longitude": -73.677589999999995, "state": "NY", "stars": 3.5, "latitude": 42.764491999999997, "type": "business"}
{"business_id": "bLdLMuRRXPNAOhyGrLPXUw", "full_address": "450 3rd Ave\nWatervliet, NY 12189", "schools": ["Rensselaer Polytechnic Institute"], "open": true, "categories": ["Pizza", "Restaurants"], "photo_url": "http://s3-media1.ak.yelpcdn.com/assets/2/www/img/924a6444ca6c/gfx/blank_biz_medium.gif", "city": "Watervliet", "review_count": 4, "name": "Giuseppe's Pizzeria & Deli", "neighborhoods": [], "url": "http://www.yelp.com/biz/giuseppes-pizzeria-and-deli-watervliet", "longitude": -73.708267000000006, "state": "NY", "stars": 4.5, "latitude": 42.711528000000001, "type": "business"}
{"business_id": "02AT15PDQTbiSoiXtNgMDg", "full_address": "2200 19th St\nTroy, NY 12180", "schools": ["Rensselaer Polytechnic Institute"], "open": true, "categories": ["Food", "Beer, Wine & Spirits"], "photo_url": "http://s3-media1.ak.yelpcdn.com/assets/2/www/img/924a6444ca6c/gfx/blank_biz_medium.gif", "city": "Troy", "review_count": 9, "name": "Hoosick Street Discount Beverage Center", "neighborhoods": [], "url": "http://www.yelp.com/biz/hoosick-street-discount-beverage-center-troy", "longitude": -73.671009999999995, "state": "NY", "stars": 4.5, "latitude": 42.737831999999997, "type": "business"}
{"business_id": "jznPYUcl1Xd7uS71uXIOCw", "full_address": "806 25th St\nWatervliet, NY 12189", "schools": ["Rensselaer Polytechnic Institute"], "open": true, "categories": ["Pubs", "Bars", "Nightlife", "Salad", "Restaurants"], "photo_url": "http://s3-media1.ak.yelpcdn.com/bphoto/oRQAEsIQDw0SdZ3DF5S4QA/ms.jpg", "city": "Watervliet", "review_count": 2, "name": "Deacon Blues", "neighborhoods": [], "url": "http://www.yelp.com/biz/deacon-blues-watervliet-2", "longitude": -73.707571799999997, "state": "NY", "stars": 3.5, "latitude": 42.735912999999996, "type": "business"}
{"business_id": "AZqsal3nzTkwQqxUol_UjA", "full_address": "13 3rd St\nTroy, NY 12180", "schools": ["Rensselaer Polytechnic Institute"], "open": true, "categories": ["Food", "Coffee & Tea", "Cafes", "Restaurants"], "photo_url": "http://s3-media3.ak.yelpcdn.com/bphoto/w1usoNaMDKQtNPI83GH9jg/ms.jpg", "city": "Troy", "review_count": 23, "name": "Spill'n the Beans Coffeehouse & Bistro", "neighborhoods": [], "url": "http://www.yelp.com/biz/spilln-the-beans-coffeehouse-and-bistro-troy", "longitude": -73.690234099999998, "state": "NY", "stars": 3.5, "latitude": 42.731961400000003, "type": "business"}
{"business_id": "SA4Qag0p91VQhXAIQt5RfQ", "full_address": "231 Wade Rd Extension\nLatham, NY 12110", "schools": ["Rensselaer Polytechnic Institute"], "open": true, "categories": ["Specialty Food", "Ethnic Food", "Polish", "Food", "Restaurants"], "photo_url": "http://s3-media4.ak.yelpcdn.com/bphoto/udaXUa9YCoS0yFeJ6E5WPg/ms.jpg", "city": "Latham", "review_count": 5, "name": "Euro Deli and Market", "neighborhoods": [], "url": "http://www.yelp.com/biz/euro-deli-and-market-latham", "longitude": -73.766616999999997, "state": "NY", "stars": 4.0, "latitude": 42.759075000000003, "type": "business"}
{"business_id": "I2J9rTN_HKO9q-Y2mkSWpg", "full_address": "738 New Loudon Rd\nLatham, NY 12110", "schools": ["Rensselaer Polytechnic Institute"], "open": true, "categories": ["American (Traditional)", "Restaurants"], "photo_url": "http://s3-media2.ak.yelpcdn.com/bphoto/JIJf4gEE9F9YwpIaCns4NQ/ms.jpg", "city": "Latham", "review_count": 2, "name": "Jessica Stone's", "neighborhoods": [], "url": "http://www.yelp.com/biz/jessica-stones-latham", "longitude": -73.761957300000006, "state": "NY", "stars": 2.5, "latitude": 42.741554299999997, "type": "business"}
{"business_id": "R5tjtiq1YeSAS4MZmjNnWw", "full_address": "17 1st St\nTroy, NY 12180", "schools": ["Rensselaer Polytechnic Institute"], "open": true, "categories": ["Bars", "Nightlife"], "photo_url": "http://s3-media1.ak.yelpcdn.com/bphoto/RfUygJdnLzTQy51XPXuibQ/ms.jpg", "city": "Troy", "review_count": 15, "name": "Footsy Magoo's", "neighborhoods": [], "url": "http://www.yelp.com/biz/footsy-magoos-troy-2", "longitude": -73.693421000000001, "state": "NY", "stars": 4.0, "latitude": 42.730620000000002, "type": "business"}
{"business_id": "45iw_QhKunotF2o6RTBEqg", "full_address": "648 Third Ave\nWatervliet, NY 12189", "schools": ["Rensselaer Polytechnic Institute"], "open": true, "categories": ["Food", "Ice Cream & Frozen Yogurt"], "photo_url": "http://s3-media1.ak.yelpcdn.com/bphoto/UC3tMf8UeD-4fepGHhZWaw/ms.jpg", "city": "Watervliet", "review_count": 8, "name": "Mac's Drive-In", "neighborhoods": [], "url": "http://www.yelp.com/biz/macs-drive-in-watervliet", "longitude": -73.706159, "state": "NY", "stars": 4.5, "latitude": 42.714185000000001, "type": "business"}
{"business_id": "0B28Fy2vkAF5sLnUyaAqaA", "full_address": "387 3rd St\nTroy, NY 12180", "schools": ["Rensselaer Polytechnic Institute"], "open": true, "categories": ["Breakfast & Brunch", "Diners", "Restaurants"], "photo_url": "http://s3-media3.ak.yelpcdn.com/bphoto/bD7vLyTqZnCmzcQJjk9oyw/ms.jpg", "city": "Troy", "review_count": 2, "name": "Alice's Diner", "neighborhoods": [], "url": "http://www.yelp.com/biz/alices-diner-troy", "longitude": -73.693506299999996, "state": "NY", "stars": 4.5, "latitude": 42.7172166, "type": "business"}
{"business_id": "wbpbaWBfU54JbjLIDwERQA", "full_address": "1085 New Loudon Rd\nCohoes, NY 12047", "schools": ["Rensselaer Polytechnic Institute"], "open": true, "categories": ["Food", "Ice Cream & Frozen Yogurt"], "photo_url": "http://s3-media2.ak.yelpcdn.com/bphoto/5jEplTXZB2rprCzGalzfMQ/ms.jpg", "city": "Cohoes", "review_count": 18, "name": "Guptill's Coney Express", "neighborhoods": [], "url": "http://www.yelp.com/biz/guptills-coney-express-cohoes", "longitude": -73.7439629, "state": "NY", "stars": 4.0, "latitude": 42.781413000000001, "type": "business"}
{"business_id": "tGJTMrSWb6wufN3m_yGOvA", "full_address": "122 4th St\nTroy, NY 12180", "schools": ["Rensselaer Polytechnic Institute"], "open": true, "categories": ["American (New)", "Southern", "Restaurants"], "photo_url": "http://s3-media2.ak.yelpcdn.com/bphoto/9z5WFhrKDFgFVhVqmgt37Q/ms.jpg", "city": "Troy", "review_count": 15, "name": "The Flying Chicken", "neighborhoods": [], "url": "http://www.yelp.com/biz/the-flying-chicken-troy", "longitude": -73.689407000000003, "state": "NY", "stars": 4.5, "latitude": 42.728955900000003, "type": "business"}
{"business_id": "-4wyQhCgMdR4LE-Dd1YH_g", "full_address": "200 Broadway\nTroy, NY 12180", "schools": ["Rensselaer Polytechnic Institute"], "open": false, "categories": ["American (New)", "Restaurants"], "photo_url": "http://s3-media2.ak.yelpcdn.com/bphoto/vUEaqX9gr0n-BqJ4B_IRDA/ms.jpg", "city": "Troy", "review_count": 5, "name": "Tosca Grille", "neighborhoods": [], "url": "http://www.yelp.com/biz/tosca-grille-troy", "longitude": -73.691384299999996, "state": "NY", "stars": 2.0, "latitude": 42.731488800000001, "type": "business"}
{"business_id": "lzdwIQbxgIePMoalQvyhew", "full_address": "284 River St\nTroy, NY 12180", "schools": ["Rensselaer Polytechnic Institute"], "open": true, "categories": ["Arts & Crafts", "Shopping", "Jewelry"], "photo_url": "http://s3-media1.ak.yelpcdn.com/assets/2/www/img/924a6444ca6c/gfx/blank_biz_medium.gif", "city": "Troy", "review_count": 2, "name": "The Broken Mold Studio", "neighborhoods": [], "url": "http://www.yelp.com/biz/the-broken-mold-studio-troy", "longitude": -73.690633399999996, "state": "NY", "stars": 3.0, "latitude": 42.732179600000002, "type": "business"}
{"business_id": "etnsoP9A55sKckLtC1MMLA", "full_address": "590 New Loudon Rd\nLatham, NY 12110", "schools": ["Rensselaer Polytechnic Institute"], "open": true, "categories": ["Food", "Ice Cream & Frozen Yogurt"], "photo_url": "http://s3-media4.ak.yelpcdn.com/bphoto/OQToaL1uv9K2j8ApInlYuQ/ms.jpg", "city": "Latham", "review_count": 3, "name": "Carvel Ice Cream Store 2440", "neighborhoods": [], "url": "http://www.yelp.com/biz/carvel-ice-cream-store-2440-latham", "longitude": -73.760388599999999, "state": "NY", "stars": 4.5, "latitude": 42.7267279, "type": "business"}
{"business_id": "uep4cDx7Kq3vJTOs2fmLaQ", "full_address": "222 Troy-Schenectady Rd\nLatham, NY 12110", "schools": ["Rensselaer Polytechnic Institute"], "open": true, "categories": ["Veterinarians", "Pets"], "photo_url": "http://s3-media1.ak.yelpcdn.com/assets/2/www/img/924a6444ca6c/gfx/blank_biz_medium.gif", "city": "Latham", "review_count": 5, "name": "Animal Emergency Clinic of Capital District", "neighborhoods": [], "url": "http://www.yelp.com/biz/animal-emergency-clinic-of-capital-district-latham", "longitude": -73.734557100000004, "state": "NY", "stars": 4.0, "latitude": 42.739173999999998, "type": "business"}
{"business_id": "4VdGntX6dKc-xQ_nFlpdVQ", "full_address": "853 4th Ave\nTroy, NY 12182", "schools": ["Rensselaer Polytechnic Institute"], "open": true, "categories": ["Italian", "Pizza", "Restaurants"], "photo_url": "http://s3-media2.ak.yelpcdn.com/bphoto/9u5RyAmOwoJINnxLm3bpLg/ms.jpg", "city": "Troy", "review_count": 14, "name": "Testo's Restaurant & Pizza", "neighborhoods": [], "url": "http://www.yelp.com/biz/testos-restaurant-and-pizza-troy", "longitude": -73.670258000000004, "state": "NY", "stars": 4.5, "latitude": 42.784686999999998, "type": "business"}
{"business_id": "pYUNKd2ljVPIhDirhOdrZw", "full_address": "110 8th St\nSte 2\nTroy, NY 12180", "schools": ["Rensselaer Polytechnic Institute"], "open": true, "categories": ["Colleges & Universities", "Education"], "photo_url": "http://s3-media4.ak.yelpcdn.com/bphoto/s1-Yq8oz2VZBEWVTKR_6vA/ms.jpg", "city": "Troy", "review_count": 4, "name": "Rensselaer Polytechnic Institute", "neighborhoods": [], "url": "http://www.yelp.com/biz/rensselaer-polytechnic-institute-troy", "longitude": -73.681679299999999, "state": "NY", "stars": 4.5, "latitude": 42.730863399999997, "type": "business"}
{"business_id": "r7l6GHODyZqGu-ZA7-anUQ", "full_address": "316 Troy-Schenectady Rd\nWatervliet, NY 12189", "schools": ["Rensselaer Polytechnic Institute"], "open": true, "categories": ["Home Services", "Real Estate", "Apartments"], "photo_url": "http://s3-media1.ak.yelpcdn.com/assets/2/www/img/924a6444ca6c/gfx/blank_biz_medium.gif", "city": "Watervliet", "review_count": 2, "name": "Hudson Preserve Luxury Residences", "neighborhoods": [], "url": "http://www.yelp.com/biz/hudson-preserve-luxury-residences-watervliet", "longitude": -73.746099700000002, "state": "NY", "stars": 2.5, "latitude": 42.743288100000001, "type": "business"}
{"business_id": "9tHSgPt0_icRH9VNJqG-QA", "full_address": "579 Troy Schenectady Rd\nLatham, NY 12110", "schools": ["Rensselaer Polytechnic Institute"], "open": false, "categories": ["Steakhouses", "Seafood", "American (Traditional)", "Restaurants"], "photo_url": "http://s3-media2.ak.yelpcdn.com/bphoto/qZ2-sHAelIkbpQSw6c-maA/ms.jpg", "city": "Latham", "review_count": 7, "name": "Dakota Restaurant", "neighborhoods": [], "url": "http://www.yelp.com/biz/dakota-restaurant-latham", "longitude": -73.766428000000005, "state": "NY", "stars": 2.5, "latitude": 42.751773499999999, "type": "business"}
{"business_id": "LO0TfAyhOYR8fVuido_9aA", "full_address": "9 126th St\nTroy, NY 12182", "schools": ["Rensselaer Polytechnic Institute"], "open": true, "categories": ["Food", "Grocery"], "photo_url": "http://s3-media1.ak.yelpcdn.com/bphoto/AgXZtyx83-Ljnva3Tb7PmQ/ms.jpg", "city": "Troy", "review_count": 2, "name": "Hannaford Supermarkets", "neighborhoods": [], "url": "http://www.yelp.com/biz/hannaford-supermarkets-troy", "longitude": -73.671482999999995, "state": "NY", "stars": 3.5, "latitude": 42.788995999999997, "type": "business"}
{"business_id": "2ubKfUIPF_mWcF5k8KLs-Q", "full_address": "143 Troy Schenectady Rd\nWatervliet, NY 12189", "schools": ["Rensselaer Polytechnic Institute"], "open": true, "categories": ["Chinese", "Restaurants"], "photo_url": "http://s3-media1.ak.yelpcdn.com/assets/2/www/img/924a6444ca6c/gfx/blank_biz_medium.gif", "city": "Watervliet", "review_count": 4, "name": "Golden House", "neighborhoods": [], "url": "http://www.yelp.com/biz/golden-house-watervliet", "longitude": -73.725377300000005, "state": "NY", "stars": 4.0, "latitude": 42.737477800000001, "type": "business"}
{"business_id": "o4G9cfQQgktHYvYafIpLwg", "full_address": "579 1st St\nTroy, NY 12180", "schools": ["Rensselaer Polytechnic Institute"], "open": true, "categories": ["Diners", "Restaurants"], "photo_url": "http://s3-media3.ak.yelpcdn.com/bphoto/iwp5Wn1r10oKAZoC5uD_qg/ms.jpg", "city": "Troy", "review_count": 4, "name": "South Troy Diner", "neighborhoods": [], "url": "http://www.yelp.com/biz/south-troy-diner-troy", "longitude": -73.697471399999998, "state": "NY", "stars": 3.0, "latitude": 42.708400500000003, "type": "business"}
{"business_id": "9bR0hOq5e6PAS3YY02ToKA", "full_address": "630  2nd Ave\nTroy, NY 12182", "schools": ["Rensselaer Polytechnic Institute"], "open": true, "categories": ["Seafood", "Restaurants"], "photo_url": "http://s3-media1.ak.yelpcdn.com/bphoto/oIN6D3FUOgz0yrS7Nien0w/ms.jpg", "city": "Troy", "review_count": 3, "name": "Trader Eds", "neighborhoods": [], "url": "http://www.yelp.com/biz/trader-eds-troy", "longitude": -73.676094199999994, "state": "NY", "stars": 1.5, "latitude": 42.776907999999999, "type": "business"}
{"business_id": "gYdx3POVviEoVSFXgIYElg", "full_address": "449 N Greenbush Rd\nRensselaer, NY 12144", "schools": ["Rensselaer Polytechnic Institute"], "open": true, "categories": ["Pizza", "Restaurants"], "photo_url": "http://s3-media1.ak.yelpcdn.com/bphoto/gKlB9P5DiB1bABwlBcUvKg/ms.jpg", "city": "Rensselaer", "review_count": 2, "name": "Dantes II Pizzeria", "neighborhoods": [], "url": "http://www.yelp.com/biz/dantes-ii-pizzeria-rensselaer", "longitude": -73.691466000000005, "state": "NY", "stars": 1.0, "latitude": 42.661315999999999, "type": "business"}
{"business_id": "38GVFKqsaX1RjJGWpjVpqQ", "full_address": "120 Defreest Dr\nTroy, NY 12180", "schools": ["Rensselaer Polytechnic Institute"], "open": true, "categories": ["Massage", "Beauty and Spas"], "photo_url": "http://s3-media4.ak.yelpcdn.com/bphoto/-9oWYrkn8h260U7TdQ9ywQ/ms.jpg", "city": "Troy", "review_count": 3, "name": "Massage In the Park", "neighborhoods": [], "url": "http://www.yelp.com/biz/massage-in-the-park-troy", "longitude": -73.694609, "state": "NY", "stars": 3.5, "latitude": 42.675915000000003, "type": "business"}
{"business_id": "wbL853xRHykMaMr_CbdAaw", "full_address": "616 N Pearl St\nAlbany, NY 12204", "schools": ["Rensselaer Polytechnic Institute"], "open": true, "categories": ["Active Life", "Gyms", "Fitness & Instruction"], "photo_url": "http://s3-media4.ak.yelpcdn.com/bphoto/DyGP_zScgP179QKBf4OYwQ/ms.jpg", "city": "Albany", "review_count": 2, "name": "The Capital Distirct YMCA", "neighborhoods": [], "url": "http://www.yelp.com/biz/the-capital-distirct-ymca-albany-2", "longitude": -73.739026699999997, "state": "NY", "stars": 4.5, "latitude": 42.674131500000001, "type": "business"}
{"business_id": "7H9wF_UHLgWPpRCKu8TlJg", "full_address": "2 Cohoes Rd\nWatervliet, NY 12189", "schools": ["Rensselaer Polytechnic Institute"], "open": true, "categories": ["Food", "Pizza", "Restaurants"], "photo_url": "http://s3-media2.ak.yelpcdn.com/bphoto/gEvGML80o0Pzvc2cxr-Okg/ms.jpg", "city": "Watervliet", "review_count": 12, "name": "The Purple Pub", "neighborhoods": [], "url": "http://www.yelp.com/biz/the-purple-pub-watervliet", "longitude": -73.700659999999999, "state": "NY", "stars": 3.5, "latitude": 42.740017199999997, "type": "business"}
{"business_id": "m4rV34xa02aRrv_EXlDuWQ", "full_address": "1004 Hoosick Rd\nTroy, NY 12180", "schools": ["Rensselaer Polytechnic Institute"], "open": true, "categories": ["American (Traditional)", "Golf", "Venues & Event Spaces", "Event Planning & Services", "Active Life", "Restaurants"], "photo_url": "http://s3-media4.ak.yelpcdn.com/bphoto/mQtbQ60J44cVdJxls065Rg/ms.jpg", "city": "Troy", "review_count": 3, "name": "Brunswick Greens Clubhouse & Restaurant", "neighborhoods": [], "url": "http://www.yelp.com/biz/brunswick-greens-clubhouse-and-restaurant-troy", "longitude": -73.617078100000001, "state": "NY", "stars": 4.5, "latitude": 42.754685700000003, "type": "business"}
{"business_id": "YozJ8FCKDT98XRq16XkpWg", "full_address": "273 Troy Schenectady Rd\nLatham, NY 12110", "schools": ["Rensselaer Polytechnic Institute"], "open": true, "categories": ["Food", "Ice Cream & Frozen Yogurt"], "photo_url": "http://s3-media1.ak.yelpcdn.com/bphoto/MdVNPe-zmtOJycsxufrVHw/ms.jpg", "city": "Latham", "review_count": 9, "name": "On the Farm", "neighborhoods": [], "url": "http://www.yelp.com/biz/on-the-farm-latham", "longitude": -73.740907899999996, "state": "NY", "stars": 4.0, "latitude": 42.742270900000001, "type": "business"}
{"business_id": "bdNTZyrd0-GT5vZ6uOhXsA", "full_address": "890 Hoosick Rd\nTroy, NY 12180", "schools": ["Rensselaer Polytechnic Institute"], "open": true, "categories": ["Food", "Ice Cream & Frozen Yogurt", "Breakfast & Brunch", "Restaurants"], "photo_url": "http://s3-media4.ak.yelpcdn.com/bphoto/LbIRB13FV8danzdN2P12WA/ms.jpg", "city": "Troy", "review_count": 11, "name": "Duncan's Dairy Bar", "neighborhoods": [], "url": "http://www.yelp.com/biz/duncans-dairy-bar-troy", "longitude": -73.6248109, "state": "NY", "stars": 3.5, "latitude": 42.752603999999998, "type": "business"}
{"business_id": "rh1bJwxoh4-nFQAvZdP3Yw", "full_address": "2301 15th St\nTroy, NY 12180", "schools": ["Rensselaer Polytechnic Institute"], "open": true, "categories": ["Italian", "Pizza", "Restaurants"], "photo_url": "http://s3-media3.ak.yelpcdn.com/bphoto/-Fu7zC8X8PIuBdZT92-0Qw/ms.jpg", "city": "Troy", "review_count": 6, "name": "Notty Pine Tavern", "neighborhoods": [], "url": "http://www.yelp.com/biz/notty-pine-tavern-troy", "longitude": -73.675697700000001, "state": "NY", "stars": 4.5, "latitude": 42.736561700000003, "type": "business"}
{"business_id": "JhWgmJHXb4avC1-vkpkkYQ", "full_address": "187 Old Loudon Rd\nLatham, NY 12110", "schools": ["Rensselaer Polytechnic Institute"], "open": true, "categories": ["Pizza", "Restaurants"], "photo_url": "http://s3-media1.ak.yelpcdn.com/assets/2/www/img/924a6444ca6c/gfx/blank_biz_medium.gif", "city": "Latham", "review_count": 5, "name": "Inferno Pizzeria", "neighborhoods": [], "url": "http://www.yelp.com/biz/inferno-pizzeria-latham", "longitude": -73.759258000000003, "state": "NY", "stars": 2.5, "latitude": 42.746124000000002, "type": "business"}
{"business_id": "wYJk9voIIV3TjZecQasrBw", "full_address": "79 Vandenburgh Ave\nTroy, NY 12180", "schools": ["Rensselaer Polytechnic Institute"], "open": true, "categories": ["Food", "Grocery"], "photo_url": "http://s3-media1.ak.yelpcdn.com/bphoto/mAKKuvTsY2T4RlzHKu_dAg/ms.jpg", "city": "Troy", "review_count": 3, "name": "Price Chopper", "neighborhoods": [], "url": "http://www.yelp.com/biz/price-chopper-troy-3", "longitude": -73.688367700000001, "state": "NY", "stars": 3.5, "latitude": 42.696482500000002, "type": "business"}
{"business_id": "RUiGb3P_5HN_Ki3a2r13GA", "full_address": "443 5th Ave\nTroy, NY 12182", "schools": ["Rensselaer Polytechnic Institute"], "open": false, "categories": ["Mexican", "Restaurants"], "photo_url": "http://s3-media1.ak.yelpcdn.com/assets/2/www/img/924a6444ca6c/gfx/blank_biz_medium.gif", "city": "Troy", "review_count": 8, "name": "Badass Burrito", "neighborhoods": [], "url": "http://www.yelp.com/biz/badass-burrito-troy", "longitude": -73.676028000000002, "state": "NY", "stars": 3.0, "latitude": 42.769236999999997, "type": "business"}
{"business_id": "dOVacg7B0D-QwZ2lv8X4Gw", "full_address": "400 McChesney Ave Ext\nTroy, NY 12180", "schools": ["Rensselaer Polytechnic Institute"], "open": true, "categories": ["Home Services", "Real Estate", "Apartments"], "photo_url": "http://s3-media1.ak.yelpcdn.com/assets/2/www/img/924a6444ca6c/gfx/blank_biz_medium.gif", "city": "Troy", "review_count": 2, "name": "Sugar Hill Apts", "neighborhoods": [], "url": "http://www.yelp.com/biz/sugar-hill-apts-troy", "longitude": -73.605119999999999, "state": "NY", "stars": 2.0, "latitude": 42.744, "type": "business"}
{"business_id": "lz5nqlBp80xVfxc7QJKkfQ", "full_address": "75 Vandenburgh Ave\nTroy, NY 12180", "schools": ["Rensselaer Polytechnic Institute"], "open": true, "categories": ["Hair Salons", "Nail Salons", "Beauty and Spas"], "photo_url": "http://s3-media2.ak.yelpcdn.com/bphoto/Mv7rok_KauLPxXdBCjx6Sw/ms.jpg", "city": "Troy", "review_count": 8, "name": "Ando", "neighborhoods": [], "url": "http://www.yelp.com/biz/ando-troy", "longitude": -73.688783799999996, "state": "NY", "stars": 3.5, "latitude": 42.698531099999997, "type": "business"}
{"business_id": "gfiyx9hfH9WMi3miCyqWWw", "full_address": "683 New Loudon Rd\nLatham, NY 12110", "schools": ["Rensselaer Polytechnic Institute"], "open": true, "categories": ["Bridal", "Shopping"], "photo_url": "http://s3-media1.ak.yelpcdn.com/assets/2/www/img/924a6444ca6c/gfx/blank_biz_medium.gif", "city": "Latham", "review_count": 2, "name": "Thoughts & Best Wishes", "neighborhoods": [], "url": "http://www.yelp.com/biz/thoughts-and-best-wishes-latham", "longitude": -73.761834100000002, "state": "NY", "stars": 3.0, "latitude": 42.737715700000003, "type": "business"}
{"business_id": "9R5M8pvADCjM_0rfZTwb4A", "full_address": "425 River St\nTroy, NY 12180", "schools": ["Rensselaer Polytechnic Institute"], "open": false, "categories": ["Arts & Entertainment", "Nightlife", "Music Venues"], "photo_url": "http://s3-media1.ak.yelpcdn.com/bphoto/diR9TxLLQPO6Vk046cG_QQ/ms.jpg", "city": "Troy", "review_count": 7, "name": "Revolution Hall", "neighborhoods": [], "url": "http://www.yelp.com/biz/revolution-hall-troy", "longitude": -73.687388999999996, "state": "NY", "stars": 4.5, "latitude": 42.735917999999998, "type": "business"}
{"business_id": "qnN9cTU6tjr9c_W5fzbc1A", "full_address": "413 River St\nTroy, NY 12180", "schools": ["Rensselaer Polytechnic Institute"], "open": true, "categories": ["Delis", "Restaurants"], "photo_url": "http://s3-media1.ak.yelpcdn.com/bphoto/UaN6NPVsvmaAQ1ta91VLZA/ms.jpg", "city": "Troy", "review_count": 2, "name": "Cafe Deli-Icious", "neighborhoods": [], "url": "http://www.yelp.com/biz/cafe-deli-icious-troy", "longitude": -73.687478799999994, "state": "NY", "stars": 4.0, "latitude": 42.735626400000001, "type": "business"}
{"business_id": "gekPL0Kc7w9zLDT3EulvxQ", "full_address": "700 Hoosick Rd\nTroy, NY 12180", "schools": ["Rensselaer Polytechnic Institute"], "open": true, "categories": ["Seafood", "Restaurants"], "photo_url": "http://s3-media2.ak.yelpcdn.com/bphoto/Kt0fvAw282Bhu0uG-AhDVg/ms.jpg", "city": "Troy", "review_count": 11, "name": "Ted's Fish Fry", "neighborhoods": [], "url": "http://www.yelp.com/biz/teds-fish-fry-troy-2", "longitude": -73.646944599999998, "state": "NY", "stars": 3.0, "latitude": 42.743095400000001, "type": "business"}
{"business_id": "CRrj-Tpbj54NcruRVKYW7g", "full_address": "68 Broad St\nWaterford, NY 12188", "schools": ["Rensselaer Polytechnic Institute"], "open": true, "categories": ["Breakfast & Brunch", "Restaurants"], "photo_url": "http://s3-media2.ak.yelpcdn.com/bphoto/VutnrchIXeBjC-r5ULeFSw/ms.jpg", "city": "Waterford", "review_count": 5, "name": "Don & Paul's Coffee Shoppe", "neighborhoods": [], "url": "http://www.yelp.com/biz/don-and-pauls-coffee-shoppe-waterford", "longitude": -73.678742600000007, "state": "NY", "stars": 4.0, "latitude": 42.790285300000001, "type": "business"}
{"business_id": "hccJ4i20bl0v5AgP6x7A7g", "full_address": "786 Pawling Ave\nTroy, NY 12180", "schools": ["Rensselaer Polytechnic Institute"], "open": true, "categories": ["Pizza", "Restaurants"], "photo_url": "http://s3-media3.ak.yelpcdn.com/bphoto/gEPoRU5kqcEfS2eBTNlQsw/ms.jpg", "city": "Troy", "review_count": 3, "name": "Chris' Pizzeria", "neighborhoods": [], "url": "http://www.yelp.com/biz/chris-pizzeria-troy", "longitude": -73.652658000000002, "state": "NY", "stars": 4.5, "latitude": 42.699807, "type": "business"}
{"business_id": "f0NbIT50Kqqfh9b7T2Zo5Q", "full_address": "18 Sargent St\nCohoes, NY 12047", "schools": ["Rensselaer Polytechnic Institute"], "open": true, "categories": ["Pizza", "Restaurants"], "photo_url": "http://s3-media4.ak.yelpcdn.com/bphoto/YrToICkhZxvinwav3vdrkg/ms.jpg", "city": "Cohoes", "review_count": 6, "name": "Mick's Pizza", "neighborhoods": [], "url": "http://www.yelp.com/biz/micks-pizza-cohoes-2", "longitude": -73.703395999999998, "state": "NY", "stars": 4.0, "latitude": 42.774338, "type": "business"}
{"business_id": "CPkUO2F9VENCaLXf4zj5UA", "full_address": "1344 Spring Avenue\nWynantskill, NY 12198", "schools": ["Rensselaer Polytechnic Institute"], "open": true, "categories": ["Food", "Ice Cream & Frozen Yogurt"], "photo_url": "http://s3-media4.ak.yelpcdn.com/bphoto/6OjiBA_Y2hrZpzRB8mYgtw/ms.jpg", "city": "Wynantskill", "review_count": 17, "name": "Moxie's Ice Cream", "neighborhoods": [], "url": "http://www.yelp.com/biz/moxies-ice-cream-wynantskill", "longitude": -73.619520899999998, "state": "NY", "stars": 4.5, "latitude": 42.706063, "type": "business"}
{"business_id": "aoGjCDs2-_-pejJmv4Ss7Q", "full_address": "600 3rd Ave\nWatervliet, NY 12189", "schools": ["Rensselaer Polytechnic Institute"], "open": true, "categories": ["Food", "Delis", "Grocery", "Restaurants"], "photo_url": "http://s3-media1.ak.yelpcdn.com/assets/2/www/img/924a6444ca6c/gfx/blank_biz_medium.gif", "city": "Watervliet", "review_count": 4, "name": "The Old Polish Deli", "neighborhoods": [], "url": "http://www.yelp.com/biz/the-old-polish-deli-watervliet", "longitude": -73.707145999999995, "state": "NY", "stars": 4.5, "latitude": 42.713045999999999, "type": "business"}
{"business_id": "4Ep1aEi5o9wDThzL4dbWuw", "full_address": "660 New Loudon Rd\nLatham, NY 12110", "schools": ["Rensselaer Polytechnic Institute"], "open": true, "categories": ["Chinese", "Restaurants"], "photo_url": "http://s3-media1.ak.yelpcdn.com/bphoto/EiT_ZPXZMQs8rBT5egygvg/ms.jpg", "city": "Latham", "review_count": 3, "name": "Honey Gardens", "neighborhoods": [], "url": "http://www.yelp.com/biz/honey-gardens-latham", "longitude": -73.762439000000001, "state": "NY", "stars": 4.0, "latitude": 42.736063999999999, "type": "business"}
{"business_id": "vJRiGiYepp8J7KvppHrNwA", "full_address": "1 Conners Blvd\nAlbany, NY 12204", "schools": ["Rensselaer Polytechnic Institute"], "open": true, "categories": ["Public Services & Government"], "photo_url": "http://s3-media1.ak.yelpcdn.com/assets/2/www/img/924a6444ca6c/gfx/blank_biz_medium.gif", "city": "Albany", "review_count": 2, "name": "Albany General Services Department", "neighborhoods": [], "url": "http://www.yelp.com/biz/albany-general-services-department-albany", "longitude": -73.731684000000001, "state": "NY", "stars": 3.5, "latitude": 42.672144000000003, "type": "business"}
{"business_id": "YVDfVKznxZpDDkk_Lor-1w", "full_address": "4 4th St\nTroy, NY 12180", "schools": ["Rensselaer Polytechnic Institute"], "open": true, "categories": ["Event Planning & Services", "Venues & Event Spaces", "Caterers"], "photo_url": "http://s3-media2.ak.yelpcdn.com/bphoto/CKYkFMBIboRPzg_DxevfhA/ms.jpg", "city": "Troy", "review_count": 4, "name": "Franklin Plaza", "neighborhoods": [], "url": "http://www.yelp.com/biz/franklin-plaza-troy", "longitude": -73.688176999999996, "state": "NY", "stars": 4.0, "latitude": 42.733437000000002, "type": "business"}
{"business_id": "bKyng2jcrIrxryyAZwgglA", "full_address": "638 Columbia St\nLatham, NY 12110", "schools": ["Rensselaer Polytechnic Institute"], "open": true, "categories": ["Pizza", "Restaurants"], "photo_url": "http://s3-media1.ak.yelpcdn.com/bphoto/3f1KLSB8iz8fvJJXkLrjsA/ms.jpg", "city": "Latham", "review_count": 5, "name": "New York Style Pizza", "neighborhoods": [], "url": "http://www.yelp.com/biz/new-york-style-pizza-latham", "longitude": -73.749755199999996, "state": "NY", "stars": 3.5, "latitude": 42.7627235, "type": "business"}
{"business_id": "cnSXX4gGaEGy75BElLiSDw", "full_address": "33 2nd St\nTroy, NY 12180", "schools": ["Rensselaer Polytechnic Institute"], "open": true, "categories": ["Pizza", "Restaurants"], "photo_url": "http://s3-media1.ak.yelpcdn.com/bphoto/TcOkF7pqlawVaaP3WMmGgg/ms.jpg", "city": "Troy", "review_count": 27, "name": "Bacchus", "neighborhoods": [], "url": "http://www.yelp.com/biz/bacchus-troy", "longitude": -73.691737799999999, "state": "NY", "stars": 3.5, "latitude": 42.730485100000003, "type": "business"}
{"business_id": "3uUfb4kLIGC4Vn2ztUxrJw", "full_address": "710 New Loudon Rd\nLatham, NY 12110", "schools": ["Rensselaer Polytechnic Institute"], "open": false, "categories": ["Sushi Bars", "Buffets", "Chinese", "Restaurants"], "photo_url": "http://s3-media2.ak.yelpcdn.com/bphoto/KgsTsDrRT-_BVe3qqCnm6w/ms.jpg", "city": "Latham", "review_count": 10, "name": "Kobe Buffet", "neighborhoods": [], "url": "http://www.yelp.com/biz/kobe-buffet-latham", "longitude": -73.762295600000002, "state": "NY", "stars": 2.5, "latitude": 42.739688200000003, "type": "business"}
{"business_id": "hluBhGYt7BOKhCP4M0qDDQ", "full_address": "235 N Greenbush Rd\nNorth Greenbush, NY 12198", "schools": ["Rensselaer Polytechnic Institute"], "open": true, "categories": ["Greek", "Mediterranean", "Restaurants"], "photo_url": "http://s3-media2.ak.yelpcdn.com/bphoto/SDFUryK9RxjOmaANzmnGgA/ms.jpg", "city": "North Greenbush", "review_count": 36, "name": "Garlic Lovers Corner", "neighborhoods": [], "url": "http://www.yelp.com/biz/garlic-lovers-corner-north-greenbush", "longitude": -73.688699999999997, "state": "NY", "stars": 3.5, "latitude": 42.681891, "type": "business"}
{"business_id": "55rcaEF3hnXfw5Tu4KrpFw", "full_address": "689 Hoosick Rd\nTroy, NY 12180", "schools": ["Rensselaer Polytechnic Institute"], "open": true, "categories": ["Delis", "Restaurants"], "photo_url": "http://s3-media2.ak.yelpcdn.com/bphoto/XqTH5-N001yjzvf4_7cOUA/ms.jpg", "city": "Troy", "review_count": 2, "name": "Maselli's Delicatessen", "neighborhoods": [], "url": "http://www.yelp.com/biz/masellis-delicatessen-troy", "longitude": -73.647936000000001, "state": "NY", "stars": 4.5, "latitude": 42.743195999999998, "type": "business"}
{"business_id": "7GIS7jdPI0WwHYO6S_Grtg", "full_address": "9 Broadway\nTroy, NY 12180", "schools": ["Rensselaer Polytechnic Institute"], "open": true, "categories": ["Cafes", "Sandwiches", "Restaurants"], "photo_url": "http://s3-media2.ak.yelpcdn.com/bphoto/_IUZoAtB_PngDszWMVQEvQ/ms.jpg", "city": "Troy", "review_count": 40, "name": "Illium Cafe", "neighborhoods": [], "url": "http://www.yelp.com/biz/illium-cafe-troy", "longitude": -73.691768400000001, "state": "NY", "stars": 4.0, "latitude": 42.731479999999998, "type": "business"}
{"business_id": "rIe12fdyMfvJtagDly5QGg", "full_address": "46 3rd St\nTroy, NY 12180", "schools": ["Rensselaer Polytechnic Institute"], "open": true, "categories": ["Food", "Coffee & Tea"], "photo_url": "http://s3-media1.ak.yelpcdn.com/bphoto/JevmKr4sy6r1EWWuAn76Ag/ms.jpg", "city": "Troy", "review_count": 12, "name": "The Daily Grind", "neighborhoods": [], "url": "http://www.yelp.com/biz/the-daily-grind-troy", "longitude": -73.690280999999999, "state": "NY", "stars": 3.0, "latitude": 42.7306934, "type": "business"}
{"business_id": "hdV5ZSDO1otDVMLJoTXrfQ", "full_address": "97 N Greenbush Rd\nTroy, NY 12180", "schools": ["Rensselaer Polytechnic Institute"], "open": true, "categories": ["Active Life", "Mini Golf"], "photo_url": "http://s3-media4.ak.yelpcdn.com/bphoto/6QUIbZ9SGi6vkCK_NSb-EA/ms.jpg", "city": "Troy", "review_count": 6, "name": "Oasis Park Miniature Golf", "neighborhoods": [], "url": "http://www.yelp.com/biz/oasis-park-miniature-golf-troy", "longitude": -73.687060700000004, "state": "NY", "stars": 3.5, "latitude": 42.690671000000002, "type": "business"}
{"business_id": "iOYrrlk8yOelEaXDsbJIVQ", "full_address": "586 New Loudon Rd\nAlbany, NY 12110", "schools": ["Rensselaer Polytechnic Institute"], "open": true, "categories": ["Delis", "Restaurants", "Event Planning & Services", "Caterers"], "photo_url": "http://s3-media1.ak.yelpcdn.com/bphoto/5Q2o87s0Ww9pn02NKI9_EQ/ms.jpg", "city": "Albany", "review_count": 8, "name": "Saati Catering", "neighborhoods": [], "url": "http://www.yelp.com/biz/saati-catering-albany", "longitude": -73.760336600000002, "state": "NY", "stars": 4.0, "latitude": 42.726834599999997, "type": "business"}
{"business_id": "gczVvjEUj89Mjynt4S-ICw", "full_address": "550 Troy Schenectady Rd\nLatham, NY 12110", "schools": ["Rensselaer Polytechnic Institute"], "open": true, "categories": ["Auto Repair", "Automotive", "Car Dealers"], "photo_url": "http://s3-media3.ak.yelpcdn.com/bphoto/ALCl1SDXLT97KqfTosfiDg/ms.jpg", "city": "Latham", "review_count": 5, "name": "Nemer Volkswagen", "neighborhoods": [], "url": "http://www.yelp.com/biz/nemer-volkswagen-latham", "longitude": -73.764596499999996, "state": "NY", "stars": 3.5, "latitude": 42.750502500000003, "type": "business"}
{"business_id": "Qh-hU4JKEjF4kkSe0IGdSA", "full_address": "680 River St\nTroy, NY 12180", "schools": ["Rensselaer Polytechnic Institute"], "open": true, "categories": ["Pubs", "Bars", "Nightlife"], "photo_url": "http://s3-media1.ak.yelpcdn.com/bphoto/zPIzZ9ERcvPcbB6-34TNxQ/ms.jpg", "city": "Troy", "review_count": 25, "name": "Ale House", "neighborhoods": [], "url": "http://www.yelp.com/biz/ale-house-troy", "longitude": -73.683982099999994, "state": "NY", "stars": 4.5, "latitude": 42.745131800000003, "type": "business"}
{"business_id": "Yjm7Lw8_PLPBRwDlaCHvsQ", "full_address": "24 Main Ave\nWynantskill, NY 12198", "schools": ["Rensselaer Polytechnic Institute"], "open": true, "categories": ["Burgers", "Restaurants"], "photo_url": "http://s3-media2.ak.yelpcdn.com/bphoto/QkSAVamO_3SPul9pW2eBdw/ms.jpg", "city": "Wynantskill", "review_count": 13, "name": "Jack's Drive-In", "neighborhoods": [], "url": "http://www.yelp.com/biz/jacks-drive-in-wynantskill", "longitude": -73.650951300000003, "state": "NY", "stars": 3.5, "latitude": 42.698604500000002, "type": "business"}
{"business_id": "o0WYo6-P0PRdShWYGDazZQ", "full_address": "425 River St\nTroy, NY 12181", "schools": ["Rensselaer Polytechnic Institute"], "open": true, "categories": ["Bars", "Food", "Breweries", "Pubs", "Nightlife", "American (New)", "Restaurants"], "photo_url": "http://s3-media3.ak.yelpcdn.com/bphoto/13ol8_RQg3pM54ChJCpoyQ/ms.jpg", "city": "Troy", "review_count": 118, "name": "Browns Brewing Co.: The Taproom", "neighborhoods": [], "url": "http://www.yelp.com/biz/browns-brewing-co-the-taproom-troy", "longitude": -73.687388999999996, "state": "NY", "stars": 3.5, "latitude": 42.735917999999998, "type": "business"}
{"business_id": "eZpvDXvqwmxmiMqbxOPqMw", "full_address": "719 2nd Ave\nTroy, NY 12182", "schools": ["Rensselaer Polytechnic Institute"], "open": true, "categories": ["Local Services", "Dry Cleaning & Laundry"], "photo_url": "http://s3-media1.ak.yelpcdn.com/bphoto/IiBx6tPUgimRjcIz8uce8Q/ms.jpg", "city": "Troy", "review_count": 2, "name": "Lansing Laundry", "neighborhoods": [], "url": "http://www.yelp.com/biz/lansing-laundry-troy", "longitude": -73.674880000000002, "state": "NY", "stars": 4.0, "latitude": 42.780535800000003, "type": "business"}
{"business_id": "rOkGJvja1fPesbQM6i1UkA", "full_address": "Latham Farms\n579 Troy-Schenectady Rd\nLatham, NY 12110", "schools": ["Rensselaer Polytechnic Institute"], "open": true, "categories": ["Food", "Beer, Wine & Spirits"], "photo_url": "http://s3-media1.ak.yelpcdn.com/bphoto/jIzlFz6CAPPXymaC25_QGQ/ms.jpg", "city": "Latham", "review_count": 12, "name": "All Star Wine & Spirits", "neighborhoods": [], "url": "http://www.yelp.com/biz/all-star-wine-and-spirits-latham", "longitude": -73.766428000000005, "state": "NY", "stars": 4.5, "latitude": 42.751773499999999, "type": "business"}
{"business_id": "OpOZH_lGPGOT_s1eeMqeNA", "full_address": "997 New Loudon Rd\nCohoes, NY 12047", "schools": ["Rensselaer Polytechnic Institute"], "open": true, "categories": ["Restaurants"], "photo_url": "http://s3-media3.ak.yelpcdn.com/bphoto/caoO92LiU_GtZzF8Cp_QYg/ms.jpg", "city": "Cohoes", "review_count": 4, "name": "Century House Restaurant", "neighborhoods": [], "url": "http://www.yelp.com/biz/century-house-restaurant-cohoes", "longitude": -73.751772000000003, "state": "NY", "stars": 3.5, "latitude": 42.770890000000001, "type": "business"}
{"business_id": "_yHIlwnpDGUyo2qyjtbsHA", "full_address": "615 Pawling Ave\nTroy, NY 12180", "schools": ["Rensselaer Polytechnic Institute"], "open": true, "categories": ["Cafes", "Restaurants"], "photo_url": "http://s3-media1.ak.yelpcdn.com/assets/2/www/img/924a6444ca6c/gfx/blank_biz_medium.gif", "city": "Troy", "review_count": 8, "name": "The Hungry Fish Cafe", "neighborhoods": [], "url": "http://www.yelp.com/biz/the-hungry-fish-cafe-troy", "longitude": -73.658906999999999, "state": "NY", "stars": 2.5, "latitude": 42.704638000000003, "type": "business"}
{"business_id": "qTp9RJpqn8WMuMliov5AuQ", "full_address": "578 New Loudon Rd\nLatham, NY 12110", "schools": ["Rensselaer Polytechnic Institute"], "open": true, "categories": ["Massage", "Beauty and Spas"], "photo_url": "http://s3-media4.ak.yelpcdn.com/bphoto/9QbZ8sj2YqZmOK91GuIRsw/ms.jpg", "city": "Latham", "review_count": 4, "name": "Bodywork Professionals", "neighborhoods": [], "url": "http://www.yelp.com/biz/bodywork-professionals-latham", "longitude": -73.760156499999994, "state": "NY", "stars": 4.0, "latitude": 42.726002200000003, "type": "business"}
{"business_id": "4Asa_ZggWWgr5EAuTUY2cQ", "full_address": "636 New Loudon Rd\nSte 2\nLatham, NY 12110", "schools": ["Rensselaer Polytechnic Institute"], "open": true, "categories": ["Burgers", "Restaurants"], "photo_url": "http://s3-media1.ak.yelpcdn.com/bphoto/2qW02W2Hjbn4TxH2cUrm-w/ms.jpg", "city": "Latham", "review_count": 7, "name": "Ted's Fish Fry", "neighborhoods": [], "url": "http://www.yelp.com/biz/teds-fish-fry-latham", "longitude": -73.763182, "state": "NY", "stars": 3.0, "latitude": 42.732835000000001, "type": "business"}
{"business_id": "TCuWO-jpbkWBAmDDx19-OQ", "full_address": "195 River St\nTroy, NY 12180", "schools": ["Rensselaer Polytechnic Institute"], "open": true, "categories": ["Hair Salons", "Massage", "Beauty and Spas"], "photo_url": "http://s3-media1.ak.yelpcdn.com/assets/2/www/img/924a6444ca6c/gfx/blank_biz_medium.gif", "city": "Troy", "review_count": 3, "name": "Indigo Hair", "neighborhoods": [], "url": "http://www.yelp.com/biz/indigo-hair-troy", "longitude": -73.693988000000004, "state": "NY", "stars": 3.5, "latitude": 42.730654999999999, "type": "business"}
{"business_id": "RZmmcTKMDo4UErKn0Ve7gg", "full_address": "618 New Loudon Rd\nLatham, NY 12110", "schools": ["Rensselaer Polytechnic Institute"], "open": true, "categories": ["Active Life", "Mini Golf", "Golf"], "photo_url": "http://s3-media3.ak.yelpcdn.com/bphoto/H13CGIHz2riWRpn0SBcBZA/ms.jpg", "city": "Latham", "review_count": 2, "name": "Latham Greens Family Fun Center", "neighborhoods": [], "url": "http://www.yelp.com/biz/latham-greens-family-fun-center-latham", "longitude": -73.761730099999994, "state": "NY", "stars": 2.5, "latitude": 42.730944299999997, "type": "business"}
{"business_id": "qI-JE39ifWGj0gMSuf5szA", "full_address": "412 Fulton St\nTroy, NY 12180", "schools": ["Rensselaer Polytechnic Institute"], "open": true, "categories": ["Books, Mags, Music and Video", "Shopping", "Comic Books"], "photo_url": "http://s3-media1.ak.yelpcdn.com/bphoto/py1SIsTW67y8ViLhXqG5-A/ms.jpg", "city": "Troy", "review_count": 3, "name": "Aquilonia Comics", "neighborhoods": [], "url": "http://www.yelp.com/biz/aquilonia-comics-troy", "longitude": -73.688210600000005, "state": "NY", "stars": 4.0, "latitude": 42.7324366, "type": "business"}
{"business_id": "XpAATxVkUjGKsg4InY5Kwg", "full_address": "7 Oakwood Ave\nTroy, NY 12180", "schools": ["Rensselaer Polytechnic Institute"], "open": true, "categories": ["Auto Repair", "Automotive", "Body Shops"], "photo_url": "http://s3-media1.ak.yelpcdn.com/bphoto/JvahaA6lxXduVGKJL_un-Q/ms.jpg", "city": "Troy", "review_count": 2, "name": "H & V Collision Center", "neighborhoods": [], "url": "http://www.yelp.com/biz/h-and-v-collision-center-troy", "longitude": -73.6790977, "state": "NY", "stars": 5.0, "latitude": 42.740930400000003, "type": "business"}
{"business_id": "bTka4gr34jsqsn2fhYKU1Q", "full_address": "100 Broadway\nAlbany, NY 12204", "schools": ["Rensselaer Polytechnic Institute"], "open": true, "categories": [], "photo_url": "http://s3-media3.ak.yelpcdn.com/bphoto/lRkPoF7XB2Z4bI04MhVsOw/ms.jpg", "city": "Albany", "review_count": 3, "name": "Sun Fai", "neighborhoods": [], "url": "http://www.yelp.com/biz/sun-fai-albany", "longitude": -73.733747600000001, "state": "NY", "stars": 3.5, "latitude": 42.681908399999998, "type": "business"}
{"business_id": "kXdh23ZRCrwpQyMT_Ok09w", "full_address": "158 4th St\nTroy, NY 12180", "schools": ["Rensselaer Polytechnic Institute"], "open": true, "categories": ["Food", "Specialty Food", "Meat Shops"], "photo_url": "http://s3-media1.ak.yelpcdn.com/assets/2/www/img/924a6444ca6c/gfx/blank_biz_medium.gif", "city": "Troy", "review_count": 3, "name": "Troy Pork Store", "neighborhoods": [], "url": "http://www.yelp.com/biz/troy-pork-store-troy", "longitude": -73.689774099999994, "state": "NY", "stars": 4.5, "latitude": 42.727443100000002, "type": "business"}
{"business_id": "kPRhhVfGK_rIQFG6iAWBdA", "full_address": "539 Pawling Ave\nTroy, NY 12180", "schools": ["Rensselaer Polytechnic Institute"], "open": true, "categories": ["Chinese", "Restaurants"], "photo_url": "http://s3-media2.ak.yelpcdn.com/bphoto/SJleqnSUF_gqvpeRrKUAZA/ms.jpg", "city": "Troy", "review_count": 12, "name": "Lee Lin Chinese Restaurant", "neighborhoods": [], "url": "http://www.yelp.com/biz/lee-lin-chinese-restaurant-troy", "longitude": -73.659973899999997, "state": "NY", "stars": 3.0, "latitude": 42.705379700000002, "type": "business"}
{"business_id": "n5s4xjB2jwwDHKE2Rj6tXw", "full_address": "664 New Loudon Rd\nLatham, NY 12110", "schools": ["Rensselaer Polytechnic Institute"], "open": true, "categories": ["Food", "Grocery"], "photo_url": "http://s3-media4.ak.yelpcdn.com/bphoto/VTTEC1b9GgK16bS54N76Qg/ms.jpg", "city": "Latham", "review_count": 45, "name": "The Fresh Market", "neighborhoods": [], "url": "http://www.yelp.com/biz/the-fresh-market-latham", "longitude": -73.763226000000003, "state": "NY", "stars": 3.5, "latitude": 42.736154900000002, "type": "business"}
{"business_id": "s4IKGtwCOFf65FXER7p2Hg", "full_address": "1527 15th St\nTroy, NY 12180", "schools": ["Rensselaer Polytechnic Institute"], "open": false, "categories": ["Food", "Coffee & Tea"], "photo_url": "http://s3-media4.ak.yelpcdn.com/bphoto/YOifbqs2yFuhwRJyTjNzaA/ms.jpg", "city": "Troy", "review_count": 3, "name": "Java ++ Coffeehouse", "neighborhoods": [], "url": "http://www.yelp.com/biz/java-coffeehouse-troy", "longitude": -73.678404999999998, "state": "NY", "stars": 4.0, "latitude": 42.726768, "type": "business"}
{"business_id": "SmLJWc73PcL3gox-LiVAaQ", "full_address": "9B Johnson Rd\nRte 9R\nLatham, NY 12110", "schools": ["Rensselaer Polytechnic Institute"], "open": true, "categories": ["Indian", "Restaurants"], "photo_url": "http://s3-media1.ak.yelpcdn.com/bphoto/BCiy3_x8QfAwMOAyFm-F3A/ms.jpg", "city": "Latham", "review_count": 65, "name": "Karavalli", "neighborhoods": [], "url": "http://www.yelp.com/biz/karavalli-latham", "longitude": -73.759008800000004, "state": "NY", "stars": 4.5, "latitude": 42.7470225, "type": "business"}
{"business_id": "deMySa63_mE3Jy2lWMU1Dg", "full_address": "401 N Greenbush Rd\nRensselaer, NY 12144", "schools": ["Rensselaer Polytechnic Institute"], "open": true, "categories": ["Automotive", "Car Dealers"], "photo_url": "http://s3-media2.ak.yelpcdn.com/bphoto/iR3fkt0fQn2kqTDqH0lvGQ/ms.jpg", "city": "Rensselaer", "review_count": 5, "name": "Cooley Mazda & Volkswagen", "neighborhoods": [], "url": "http://www.yelp.com/biz/cooley-mazda-and-volkswagen-rensselaer", "longitude": -73.691191099999998, "state": "NY", "stars": 4.0, "latitude": 42.665907199999999, "type": "business"}
{"business_id": "Ab7pVtIpinCvULKA3bjNnA", "full_address": "565 Congress St\nTroy, NY 12180", "schools": ["Rensselaer Polytechnic Institute"], "open": true, "categories": ["Pizza", "Sandwiches", "Restaurants"], "photo_url": "http://s3-media1.ak.yelpcdn.com/assets/2/www/img/924a6444ca6c/gfx/blank_biz_medium.gif", "city": "Troy", "review_count": 2, "name": "Hoosick Pizza", "neighborhoods": [], "url": "http://www.yelp.com/biz/hoosick-pizza-troy", "longitude": -73.676205899999999, "state": "NY", "stars": 3.0, "latitude": 42.722487999999998, "type": "business"}
{"business_id": "swl3A19s0l5nsftCJn8yPA", "full_address": "654 Watervliet Shaker Rd\nLatham, NY 12110", "schools": ["Rensselaer Polytechnic Institute"], "open": true, "categories": ["Pizza", "Restaurants"], "photo_url": "http://s3-media3.ak.yelpcdn.com/bphoto/Gjz2PCbLZ6midk1n_0LaUg/ms.jpg", "city": "Latham", "review_count": 5, "name": "Vintage Pizza Inc", "neighborhoods": [], "url": "http://www.yelp.com/biz/vintage-pizza-inc-latham", "longitude": -73.772698399999996, "state": "NY", "stars": 3.5, "latitude": 42.737470399999999, "type": "business"}
{"business_id": "6PdMtDkLAg_kDYCEi6VBwA", "full_address": "266 4th St\nTroy, NY 12180", "schools": ["Rensselaer Polytechnic Institute"], "open": true, "categories": ["Italian", "Pizza", "Restaurants"], "photo_url": "http://s3-media4.ak.yelpcdn.com/bphoto/5LWb4KpH-DEKOC25gosv8Q/ms.jpg", "city": "Troy", "review_count": 53, "name": "DeFazio's Pizzeria", "neighborhoods": [], "url": "http://www.yelp.com/biz/defazios-pizzeria-troy", "longitude": -73.690662599999996, "state": "NY", "stars": 4.5, "latitude": 42.7232117, "type": "business"}
{"business_id": "zx1lLUvlRUN5nQlSj3HRDw", "full_address": "282 River St\nTroy, NY 12180", "schools": ["Rensselaer Polytechnic Institute"], "open": true, "categories": ["Shopping", "Antiques"], "photo_url": "http://s3-media1.ak.yelpcdn.com/assets/2/www/img/924a6444ca6c/gfx/blank_biz_medium.gif", "city": "Troy", "review_count": 2, "name": "Trojan Horse The", "neighborhoods": [], "url": "http://www.yelp.com/biz/trojan-horse-the-troy", "longitude": -73.690619999999996, "state": "NY", "stars": 5.0, "latitude": 42.732084999999998, "type": "business"}
{"business_id": "hhjYGhB_Le97qh6rFynOQw", "full_address": "636 Loudon Rd.\nLatham, NY 12110", "schools": ["Rensselaer Polytechnic Institute"], "open": true, "categories": ["Pizza", "Restaurants"], "photo_url": "http://s3-media2.ak.yelpcdn.com/bphoto/kM7iB3xTuCbtG3S0UyHGwA/ms.jpg", "city": "Latham", "review_count": 7, "name": "Paesan's Pizza", "neighborhoods": [], "url": "http://www.yelp.com/biz/paesans-pizza-latham", "longitude": -73.763182, "state": "NY", "stars": 3.5, "latitude": 42.732835000000001, "type": "business"}
{"business_id": "hYLmZXLQP2xOSaopGVzyKw", "full_address": "833 Old Loudon Rd\nLatham, NY 12110", "schools": ["Rensselaer Polytechnic Institute"], "open": true, "categories": ["Hotels & Travel", "Event Planning & Services", "Hotels"], "photo_url": "http://s3-media1.ak.yelpcdn.com/assets/2/www/img/924a6444ca6c/gfx/blank_biz_medium.gif", "city": "Latham", "review_count": 7, "name": "La Quinta Inns & Suites", "neighborhoods": [], "url": "http://www.yelp.com/biz/la-quinta-inns-and-suites-latham", "longitude": -73.753827599999994, "state": "NY", "stars": 3.5, "latitude": 42.762404400000001, "type": "business"}
{"business_id": "pP8vL3HD_-hW08DlJ6peuw", "full_address": "710 New Loudon Rd\nLatham, NY 12110", "schools": ["Rensselaer Polytechnic Institute"], "open": false, "categories": ["Buffets", "Restaurants"], "photo_url": "http://s3-media1.ak.yelpcdn.com/assets/2/www/img/924a6444ca6c/gfx/blank_biz_medium.gif", "city": "Latham", "review_count": 2, "name": "Grand Buffet", "neighborhoods": [], "url": "http://www.yelp.com/biz/grand-buffet-latham", "longitude": -73.762295600000002, "state": "NY", "stars": 3.5, "latitude": 42.739688200000003, "type": "business"}
{"business_id": "ea3P6cp6T5-_GiToKF-kgw", "full_address": "285 River St\nTroy, NY 12180", "schools": ["Rensselaer Polytechnic Institute"], "open": true, "categories": ["Barbers", "Beauty and Spas"], "photo_url": "http://s3-media1.ak.yelpcdn.com/assets/2/www/img/924a6444ca6c/gfx/blank_biz_medium.gif", "city": "Troy", "review_count": 3, "name": "Jen's Barber Shop", "neighborhoods": [], "url": "http://www.yelp.com/biz/jens-barber-shop-troy", "longitude": -73.690708900000004, "state": "NY", "stars": 4.0, "latitude": 42.732341300000002, "type": "business"}
{"business_id": "t1XPSn5O1edDJwhJFYeEIQ", "full_address": "472 2nd Ave\nTroy, NY 12182", "schools": ["Rensselaer Polytechnic Institute"], "open": true, "categories": ["Chinese", "Restaurants"], "photo_url": "http://s3-media2.ak.yelpcdn.com/bphoto/riSN55ZNkSMyP3Ck8Q6E5A/ms.jpg", "city": "Troy", "review_count": 3, "name": "Spring Garden", "neighborhoods": [], "url": "http://www.yelp.com/biz/spring-garden-troy", "longitude": -73.678639000000004, "state": "NY", "stars": 3.0, "latitude": 42.771079999999998, "type": "business"}
{"business_id": "xlCVbr56NU9rFFWPRcRUyA", "full_address": "447 3rd Ave\nWatervliet, NY 12189", "schools": ["Rensselaer Polytechnic Institute"], "open": true, "categories": ["Seafood", "Restaurants"], "photo_url": "http://s3-media3.ak.yelpcdn.com/bphoto/yfjZHMGnkey7FFuhy3eTzQ/ms.jpg", "city": "Watervliet", "review_count": 11, "name": "Ted's Fish Fry", "neighborhoods": [], "url": "http://www.yelp.com/biz/teds-fish-fry-watervliet", "longitude": -73.708731, "state": "NY", "stars": 3.5, "latitude": 42.711718300000001, "type": "business"}
{"business_id": "-Y3Q670i-Xw0rSzGwirVFw", "full_address": "827 River St\nTroy, NY 12180", "schools": ["Rensselaer Polytechnic Institute"], "open": true, "categories": ["American (Traditional)", "Restaurants"], "photo_url": "http://s3-media1.ak.yelpcdn.com/assets/2/www/img/924a6444ca6c/gfx/blank_biz_medium.gif", "city": "Troy", "review_count": 2, "name": "Happy Lunch", "neighborhoods": [], "url": "http://www.yelp.com/biz/happy-lunch-troy", "longitude": -73.682772, "state": "NY", "stars": 3.5, "latitude": 42.750765000000001, "type": "business"}
{"business_id": "5BM0cmJvxaFlFuh0L-b4Ow", "full_address": "217 N Greenbush Rd\nTroy, NY 12180", "schools": ["Rensselaer Polytechnic Institute"], "open": true, "categories": ["Hardware Stores", "Shopping", "Home & Garden"], "photo_url": "http://s3-media1.ak.yelpcdn.com/assets/2/www/img/924a6444ca6c/gfx/blank_biz_medium.gif", "city": "Troy", "review_count": 3, "name": "Country True Value Hardware", "neighborhoods": [], "url": "http://www.yelp.com/biz/country-true-value-hardware-troy-2", "longitude": -73.688731399999995, "state": "NY", "stars": 5.0, "latitude": 42.683544599999998, "type": "business"}
